{"status":200,"items":[{"id":3416,"name":"Берлин","area":8753,"telcod":30,"latitude":52.5167,"longitude":13.3833,"time_zone":2,"english":"Berlin","rajon":0,"country":"DE","level":1,"vid":1,"post":"10115-14199","full_name":"Берлин (Германия, Берлин)","url":"https:\/\/htmlweb.ru\/geo\/country\/DE\/city\/3416"},{"id":3443,"name":"Бремен","area":8754,"telcod":421,"latitude":53.0769,"longitude":8.80889,"time_zone":1,"english":"Freie hansestadt bremen","rajon":0,"country":"DE","level":1,"vid":1,"post":"28195,28197,28199,28201,28203,28205,28207,28209,28211,28213,28215,28217,28219,28237,28239,28259,28277,28279,28307,28309,28325,28327,28329,28355,28357,28359,28717,28719,28755,28757,28759,28777,28779","full_name":"Бремен (Германия, Бремен)","url":"https:\/\/htmlweb.ru\/geo\/country\/DE\/city\/3443"},{"id":3534,"name":"Висбаден","area":8751,"telcod":"6122,6127,6134,0611","latitude":50.0821,"longitude":8.24138,"time_zone":1,"english":"Wiesbaden","rajon":550,"country":"DE","level":1,"vid":1,"post":"65183-65207,55246,55252","full_name":"Висбаден (Германия, Гессен, Дармштадт)","url":"https:\/\/htmlweb.ru\/geo\/country\/DE\/city\/3534"},{"id":3560,"name":"Ганновер","area":8562,"telcod":511,"latitude":52.3744,"longitude":9.73861,"time_zone":1,"english":"Hannover","rajon":60240,"country":"DE","level":1,"vid":1,"post":"30159-30659","full_name":"Ганновер (Германия, Нижняя Саксония, Ганновер)","url":"https:\/\/htmlweb.ru\/geo\/country\/DE\/city\/3560"},{"id":3641,"name":"Дрезден","area":8460,"telcod":351.35201,"latitude":51.0493,"longitude":13.7384,"time_zone":1,"english":"Dresden","rajon":0,"country":"DE","level":1,"vid":1,"post":"01067-01328,01465","full_name":"Дрезден (Германия, Свободное государство Саксония)","url":"https:\/\/htmlweb.ru\/geo\/country\/DE\/city\/3641"},{"id":3647,"name":"Дюссельдорф","area":8756,"telcod":"2104,211,203","latitude":51.2311,"longitude":6.77238,"time_zone":1,"english":"Dusseldorf","rajon":881,"country":"DE","level":1,"vid":1,"post":"40210,40211,40212,40213,40215,40217,40219,40221,40223,40225,40227,40229,40231,40233,40235,40237,40239,40468,40470,40472,40474,40476,40477,40479,40489,40545,40547,40549,40589,40591,40593,40595,40597,40599,40625,40627,40629","full_name":"Дюссельдорф (Германия, Северный Рейн-Вестфалия, Дюссельдорф)","url":"https:\/\/htmlweb.ru\/geo\/country\/DE\/city\/3647"},{"id":3728,"name":"Киль","area":8467,"telcod":431,"latitude":54.3253,"longitude":10.1406,"time_zone":1,"english":"Kiel","rajon":43499,"country":"DE","level":1,"vid":1,"post":"24103-24159,24159","full_name":"Киль (Германия, Шлезвиг-Гольштейн, Киль)","url":"https:\/\/htmlweb.ru\/geo\/country\/DE\/city\/3728"},{"id":3816,"name":"Магдебург","area":8458,"telcod":391,"latitude":52.1319,"longitude":11.6278,"time_zone":1,"english":"Magdeburg","rajon":50529,"country":"DE","level":1,"vid":1,"post":"39104-39130","full_name":"Магдебург (Германия, Саксония-Анхальт, Магдебург)","url":"https:\/\/htmlweb.ru\/geo\/country\/DE\/city\/3816"},{"id":3821,"name":"Майнц","area":7976,"telcod":6131.6136,"latitude":50.0006,"longitude":8.27228,"time_zone":1,"english":"Mainz","rajon":43870,"country":"DE","level":1,"vid":1,"post":"55001-55131","full_name":"Майнц (Германия, Рейнланд-Пфальц, Рейн-Лан)","url":"https:\/\/htmlweb.ru\/geo\/country\/DE\/city\/3821"},{"id":3863,"name":"Мюнхен","area":8067,"telcod":89,"latitude":48.1333,"longitude":11.5667,"time_zone":1,"english":"Mnchen","rajon":821,"country":"DE","level":1,"vid":1,"post":"80331-81929","full_name":"Мюнхен (Германия, Бавария, Верхняя Бавария)","url":"https:\/\/htmlweb.ru\/geo\/country\/DE\/city\/3863"},{"id":3957,"name":"Потсдам","area":8065,"telcod":"33208,33201,331","latitude":52.4,"longitude":13.0667,"time_zone":1,"english":"Potsdam","rajon":0,"country":"DE","level":1,"vid":1,"post":"14467,14482,14469,14471,14473,14476,14478,14480","full_name":"Потсдам (Германия, Бранденбург)","url":"https:\/\/htmlweb.ru\/geo\/country\/DE\/city\/3957"},{"id":4018,"name":"Саарбрюккен","area":8752,"telcod":"6893,6897,6805,681,6898","latitude":49.2333,"longitude":7,"time_zone":1,"english":"Saarbrucken","rajon":42349,"country":"DE","level":1,"vid":1,"post":"66001-66133","full_name":"Саарбрюккен (Германия, Саар, Нойнкирхен)","url":"https:\/\/htmlweb.ru\/geo\/country\/DE\/city\/4018"},{"id":4204,"name":"Шверин","area":9268,"telcod":385,"latitude":53.6333,"longitude":11.4167,"time_zone":1,"english":"Severin","rajon":46512,"country":"DE","level":1,"vid":1,"post":"19053,19055,19057,19059,19061,19063","full_name":"Шверин (Германия, Мекленбург-Передняя Померания, Бург)","url":"https:\/\/htmlweb.ru\/geo\/country\/DE\/city\/4204"},{"id":4247,"name":"Штутгарт","area":8560,"telcod":711,"latitude":48.7761,"longitude":9.1775,"time_zone":1,"english":"Stuttgart","rajon":825,"country":"DE","level":1,"vid":1,"post":"70173,70174, ,70176, ,70178, ,70180, ,70182, ,70184, ,70186, ,70188, ,70190, ,70191, ,70192, ,70193, ,70195, ,70197, ,70199, ,70327, ,70329, ,70372, ,70374, ,70378, ,70435, ,70437, ,704","full_name":"Штутгарт (Германия, Баден-Вюртемберг, Штутгарт)","url":"https:\/\/htmlweb.ru\/geo\/country\/DE\/city\/4247"}],"limit":4}